[
  { "name": "Tokyo",        "country": "JP", "country_name": "Japan",           "lat": 35.6762,  "lng": 139.6503, "population": 13960000, "timezone": "Asia/Tokyo",          "is_capital": true },
  { "name": "Delhi",        "country": "IN", "country_name": "India",           "lat": 28.7041,  "lng": 77.1025,  "population": 32226000, "timezone": "Asia/Kolkata",        "is_capital": true },
  { "name": "Shanghai",     "country": "CN", "country_name": "China",           "lat": 31.2304,  "lng": 121.4737, "population": 26317000, "timezone": "Asia/Shanghai",       "is_capital": false },
  { "name": "Dhaka",        "country": "BD", "country_name": "Bangladesh",      "lat": 23.8103,  "lng": 90.4125,  "population": 22478000, "timezone": "Asia/Dhaka",          "is_capital": true },
  { "name": "São Paulo",    "country": "BR", "country_name": "Brazil",          "lat": -23.5505, "lng": -46.6333, "population": 22430000, "timezone": "America/Sao_Paulo",   "is_capital": false },
  { "name": "Cairo",        "country": "EG", "country_name": "Egypt",           "lat": 30.0444,  "lng": 31.2357,  "population": 21323000, "timezone": "Africa/Cairo",        "is_capital": true },
  { "name": "Mexico City",  "country": "MX", "country_name": "Mexico",          "lat": 19.4326,  "lng": -99.1332, "population": 21671000, "timezone": "America/Mexico_City", "is_capital": true },
  { "name": "Beijing",      "country": "CN", "country_name": "China",           "lat": 39.9042,  "lng": 116.4074, "population": 20896000, "timezone": "Asia/Shanghai",       "is_capital": true },
  { "name": "Mumbai",       "country": "IN", "country_name": "India",           "lat": 19.0760,  "lng": 72.8777,  "population": 20667000, "timezone": "Asia/Kolkata",        "is_capital": false },
  { "name": "Osaka",        "country": "JP", "country_name": "Japan",           "lat": 34.6937,  "lng": 135.5023, "population": 19059000, "timezone": "Asia/Tokyo",          "is_capital": false },
  { "name": "Karachi",      "country": "PK", "country_name": "Pakistan",        "lat": 24.8607,  "lng": 67.0011,  "population": 16459000, "timezone": "Asia/Karachi",        "is_capital": false },
  { "name": "Chongqing",    "country": "CN", "country_name": "China",           "lat": 29.5630,  "lng": 106.5516, "population": 16382000, "timezone": "Asia/Shanghai",       "is_capital": false },
  { "name": "Istanbul",     "country": "TR", "country_name": "Turkey",          "lat": 41.0082,  "lng": 28.9784,  "population": 15460000, "timezone": "Europe/Istanbul",     "is_capital": false },
  { "name": "Kinshasa",     "country": "CD", "country_name": "DR Congo",        "lat": -4.4419,  "lng": 15.2663,  "population": 15628000, "timezone": "Africa/Kinshasa",     "is_capital": true },
  { "name": "Lagos",        "country": "NG", "country_name": "Nigeria",         "lat": 6.5244,   "lng": 3.3792,   "population": 15279000, "timezone": "Africa/Lagos",        "is_capital": false },
  { "name": "Buenos Aires", "country": "AR", "country_name": "Argentina",       "lat": -34.6037, "lng": -58.3816, "population": 15369000, "timezone": "America/Argentina/Buenos_Aires", "is_capital": true },
  { "name": "Kolkata",      "country": "IN", "country_name": "India",           "lat": 22.5726,  "lng": 88.3639,  "population": 14974000, "timezone": "Asia/Kolkata",        "is_capital": false },
  { "name": "Manila",       "country": "PH", "country_name": "Philippines",     "lat": 14.5995,  "lng": 120.9842, "population": 14158000, "timezone": "Asia/Manila",         "is_capital": true },
  { "name": "Guangzhou",    "country": "CN", "country_name": "China",           "lat": 23.1291,  "lng": 113.2644, "population": 13900000, "timezone": "Asia/Shanghai",       "is_capital": false },
  { "name": "Tianjin",      "country": "CN", "country_name": "China",           "lat": 39.3434,  "lng": 117.3616, "population": 13400000, "timezone": "Asia/Shanghai",       "is_capital": false },
  { "name": "Moscow",       "country": "RU", "country_name": "Russia",          "lat": 55.7558,  "lng": 37.6173,  "population": 12506000, "timezone": "Europe/Moscow",       "is_capital": true },
  { "name": "Shenzhen",     "country": "CN", "country_name": "China",           "lat": 22.5431,  "lng": 114.0579, "population": 12591000, "timezone": "Asia/Shanghai",       "is_capital": false },
  { "name": "Lahore",       "country": "PK", "country_name": "Pakistan",        "lat": 31.5497,  "lng": 74.3436,  "population": 13095000, "timezone": "Asia/Karachi",        "is_capital": false },
  { "name": "Bangalore",    "country": "IN", "country_name": "India",           "lat": 12.9716,  "lng": 77.5946,  "population": 12765000, "timezone": "Asia/Kolkata",        "is_capital": false },
  { "name": "Paris",        "country": "FR", "country_name": "France",          "lat": 48.8566,  "lng": 2.3522,   "population": 11020000, "timezone": "Europe/Paris",        "is_capital": true },
  { "name": "London",       "country": "GB", "country_name": "United Kingdom",  "lat": 51.5074,  "lng": -0.1278,  "population": 9648000,  "timezone": "Europe/London",       "is_capital": true },
  { "name": "Jakarta",      "country": "ID", "country_name": "Indonesia",       "lat": -6.2088,  "lng": 106.8456, "population": 10562000, "timezone": "Asia/Jakarta",        "is_capital": true },
  { "name": "Lima",         "country": "PE", "country_name": "Peru",            "lat": -12.0464, "lng": -77.0428, "population": 11044000, "timezone": "America/Lima",        "is_capital": true },
  { "name": "Bangkok",      "country": "TH", "country_name": "Thailand",        "lat": 13.7563,  "lng": 100.5018, "population": 10723000, "timezone": "Asia/Bangkok",        "is_capital": true },
  { "name": "Hyderabad",    "country": "IN", "country_name": "India",           "lat": 17.3850,  "lng": 78.4867,  "population": 9746000,  "timezone": "Asia/Kolkata",        "is_capital": false },
  { "name": "Seoul",        "country": "KR", "country_name": "South Korea",     "lat": 37.5665,  "lng": 126.9780, "population": 9776000,  "timezone": "Asia/Seoul",          "is_capital": true },
  { "name": "Bogotá",       "country": "CO", "country_name": "Colombia",        "lat": 4.7110,   "lng": -74.0721, "population": 11167000, "timezone": "America/Bogota",      "is_capital": true },
  { "name": "Tehran",       "country": "IR", "country_name": "Iran",            "lat": 35.6892,  "lng": 51.3890,  "population": 9381000,  "timezone": "Asia/Tehran",         "is_capital": true },
  { "name": "Ho Chi Minh City","country":"VN","country_name": "Vietnam",        "lat": 10.8231,  "lng": 106.6297, "population": 9077000,  "timezone": "Asia/Ho_Chi_Minh",    "is_capital": false },
  { "name": "New York City","country": "US", "country_name": "United States",   "lat": 40.7128,  "lng": -74.0060, "population": 8336000,  "timezone": "America/New_York",    "is_capital": false },
  { "name": "Chengdu",      "country": "CN", "country_name": "China",           "lat": 30.5728,  "lng": 104.0668, "population": 9005000,  "timezone": "Asia/Shanghai",       "is_capital": false },
  { "name": "Johannesburg", "country": "ZA", "country_name": "South Africa",    "lat": -26.2041, "lng": 28.0473,  "population": 9000000,  "timezone": "Africa/Johannesburg", "is_capital": false },
  { "name": "Wuhan",        "country": "CN", "country_name": "China",           "lat": 30.5928,  "lng": 114.3055, "population": 8176000,  "timezone": "Asia/Shanghai",       "is_capital": false },
  { "name": "Ahmedabad",    "country": "IN", "country_name": "India",           "lat": 23.0225,  "lng": 72.5714,  "population": 8059000,  "timezone": "Asia/Kolkata",        "is_capital": false },
  { "name": "Los Angeles",  "country": "US", "country_name": "United States",   "lat": 34.0522,  "lng": -118.2437,"population": 3979000,  "timezone": "America/Los_Angeles", "is_capital": false },
  { "name": "Santiago",     "country": "CL", "country_name": "Chile",           "lat": -33.4489, "lng": -70.6693, "population": 7112000,  "timezone": "America/Santiago",    "is_capital": true },
  { "name": "Riyadh",       "country": "SA", "country_name": "Saudi Arabia",    "lat": 24.7136,  "lng": 46.6753,  "population": 7682000,  "timezone": "Asia/Riyadh",         "is_capital": true },
  { "name": "Singapore",    "country": "SG", "country_name": "Singapore",       "lat": 1.3521,   "lng": 103.8198, "population": 5850000,  "timezone": "Asia/Singapore",      "is_capital": true },
  { "name": "Dubai",        "country": "AE", "country_name": "UAE",             "lat": 25.2048,  "lng": 55.2708,  "population": 3478300,  "timezone": "Asia/Dubai",          "is_capital": false },
  { "name": "Toronto",      "country": "CA", "country_name": "Canada",          "lat": 43.6532,  "lng": -79.3832, "population": 2930000,  "timezone": "America/Toronto",     "is_capital": false },
  { "name": "Sydney",       "country": "AU", "country_name": "Australia",       "lat": -33.8688, "lng": 151.2093, "population": 5312000,  "timezone": "Australia/Sydney",    "is_capital": false },
  { "name": "Berlin",       "country": "DE", "country_name": "Germany",         "lat": 52.5200,  "lng": 13.4050,  "population": 3645000,  "timezone": "Europe/Berlin",       "is_capital": true },
  { "name": "Madrid",       "country": "ES", "country_name": "Spain",           "lat": 40.4168,  "lng": -3.7038,  "population": 3223000,  "timezone": "Europe/Madrid",       "is_capital": true },
  { "name": "Nairobi",      "country": "KE", "country_name": "Kenya",           "lat": -1.2921,  "lng": 36.8219,  "population": 4922000,  "timezone": "Africa/Nairobi",      "is_capital": true },
  { "name": "Amsterdam",    "country": "NL", "country_name": "Netherlands",     "lat": 52.3676,  "lng": 4.9041,   "population": 873338,   "timezone": "Europe/Amsterdam",    "is_capital": true },
  { "name": "Rome",         "country": "IT", "country_name": "Italy",           "lat": 41.9028,  "lng": 12.4964,  "population": 2873000,  "timezone": "Europe/Rome",         "is_capital": true },
  { "name": "Chicago",      "country": "US", "country_name": "United States",   "lat": 41.8781,  "lng": -87.6298, "population": 2696000,  "timezone": "America/Chicago",     "is_capital": false },
  { "name": "Accra",        "country": "GH", "country_name": "Ghana",           "lat": 5.6037,   "lng": -0.1870,  "population": 2277000,  "timezone": "Africa/Accra",        "is_capital": true },
  { "name": "Warsaw",       "country": "PL", "country_name": "Poland",          "lat": 52.2297,  "lng": 21.0122,  "population": 1794000,  "timezone": "Europe/Warsaw",       "is_capital": true },
  { "name": "San Francisco","country": "US", "country_name": "United States",   "lat": 37.7749,  "lng": -122.4194,"population": 874961,   "timezone": "America/Los_Angeles", "is_capital": false },
  { "name": "Stockholm",    "country": "SE", "country_name": "Sweden",          "lat": 59.3293,  "lng": 18.0686,  "population": 975551,   "timezone": "Europe/Stockholm",    "is_capital": true },
  { "name": "Oslo",         "country": "NO", "country_name": "Norway",          "lat": 59.9139,  "lng": 10.7522,  "population": 693491,   "timezone": "Europe/Oslo",         "is_capital": true },
  { "name": "Helsinki",     "country": "FI", "country_name": "Finland",         "lat": 60.1699,  "lng": 24.9384,  "population": 658457,   "timezone": "Europe/Helsinki",     "is_capital": true }
]
